City_ID,City,Country,Max Temp,Current Description,Lat,Lng,Hotel Name
0,Jamestown,US,22.32,mist,42.097,-79.2353,Hampton Inn & Suites Jamestown
1,Ushuaia,AR,53.26,clear sky,-54.8,-68.3,Albatross Hotel
2,Rikitea,PF,78.44,light rain,-23.1203,-134.9692,People ThankYou
3,Byron Bay,AU,71.87,overcast clouds,-28.65,153.6167,Backpackers Inn
4,Severo-Kurilsk,RU,28.98,light snow,50.6789,156.125,Kak Doma
6,Puerto Ayora,EC,82.36,broken clouds,-0.7393,-90.3518,Finch Bay Galapagos Hotel
7,Laguna,US,67.66,clear sky,38.421,-121.4238,"Holiday Inn Express & Suites Elk Grove Central - Hwy 99, an IHG Hotel"
8,Mitsamiouli,KM,81.41,light rain,-11.3847,43.2844,Foyer ADM
10,Oktyabrskoye,RU,30.34,snow,43.0645,44.7417,Prolesok Mini-hotel
12,Port Elizabeth,ZA,66.49,broken clouds,-33.918,25.5701,39 On Nile Guest House
13,Tucumcari,US,39.04,clear sky,35.1717,-103.725,"Holiday Inn Express & Suites Tucumcari, an IHG Hotel"
14,Hithadhoo,MV,81.54,broken clouds,-0.6,73.0833,Scoop Guest House
15,Bilma,NE,58.68,clear sky,18.6853,12.9164,Expeditions Ténére voyages
17,Bredasdorp,ZA,65.52,few clouds,-34.5322,20.0403,Bredasdorp Country Manor
19,Lata,PT,50.05,overcast clouds,40.1629,-8.3327,Casa Maquia
23,Marawi,PH,63.64,overcast clouds,7.9986,124.2928,Derogongan Residence
24,Mataura,NZ,56.48,overcast clouds,-46.1927,168.8643,Ellie's Villa
25,Morondava,MG,81.66,scattered clouds,-20.2833,44.2833,La Case Bambou
26,Broken Hill,AU,68.97,overcast clouds,-31.95,141.4333,Royal Exchange Hotel
28,Samarai,PG,82.69,overcast clouds,-10.6167,150.6667,Nuli Sapi
29,Kodiak,US,36.91,overcast clouds,57.79,-152.4072,Best Western Kodiak Inn And Convention Center
30,Punta Arenas,CL,57.22,clear sky,-53.15,-70.9167,Hotel Hain
31,Hambantota,LK,73.49,clear sky,6.1241,81.1185,Bungalow 63
32,Cape Town,ZA,65.88,clear sky,-33.9258,18.4232,"Radisson Blu Hotel Waterfront, Cape Town"
33,San Patricio,US,46.81,broken clouds,28.017,-97.5169,"Motel 6 Sinton, TX"
34,Chuy,UY,73.67,few clouds,-33.6971,-53.4616,Nuevo Hotel Plaza
35,New Norfolk,AU,63.66,scattered clouds,-42.7826,147.0587,The Shingles Riverside Cottages
37,Boa Vista,BR,87.78,scattered clouds,2.8197,-60.6733,Aipana Plaza Hotel
38,Avarua,CK,84.25,few clouds,-21.2078,-159.775,Paradise Inn
40,Pisco,PE,73.45,clear sky,-13.7,-76.2167,Hotel San Isidro Oficial
44,Vaini,TO,79.18,moderate rain,-21.2,-175.2,Keleti Beach Resort
46,Saint-Georges,GD,80.28,few clouds,12.0564,-61.7485,Radisson Grenada Beach Resort
47,Lebu,CL,61.5,clear sky,-37.6167,-73.65,Hostal Las Lilas
48,Hervey Bay,AU,77.04,broken clouds,-25.2986,152.8535,Shelly Bay Resort
49,Busselton,AU,69.13,clear sky,-33.65,115.3333,Observatory Guest House
50,Bambous Virieux,MU,79.21,light rain,-20.3428,57.7575,Casa Tia Villa
51,Hobart,AU,64.26,broken clouds,-42.8794,147.3294,St Ives Hobart Accommodation Tasmania
52,Kapaa,US,79.12,clear sky,22.0752,-159.319,Sheraton Kauai Coconut Beach Resort
55,Butaritari,KI,82.51,light rain,3.0707,172.7902,Isles Sunset Lodge
56,Longyan,CN,44.37,overcast clouds,25.1072,117.0225,Jinjiang Inn Longyan Zhongshan Road Pedestrian Street
57,Atuona,PF,78.76,light rain,-9.8,-139.0333,Villa Enata
58,Ponta Do Sol,PT,65.71,overcast clouds,32.6667,-17.1,Hotel do Campo
59,Camopi,GF,73.42,broken clouds,3.1655,-52.3158,La pousada
60,Hasaki,JP,36.0,broken clouds,35.7333,140.8333,Inubosaki Kanko Hotel
61,Bar Harbor,US,21.97,light snow,44.3876,-68.2039,Atlantic Oceanside Hotel & Event Center
62,Kharagauli,GE,30.56,snow,42.0214,43.1977,twincity
63,San Andres,CO,84.22,few clouds,12.5847,-81.7006,Hotel Arena Blanca
67,Hilo,US,80.8,overcast clouds,19.7297,-155.09,Hilo Hawaiian Hotel
68,Port Lincoln,AU,66.83,overcast clouds,-34.7333,135.8667,Port Lincoln Hotel
69,Kavieng,PG,82.65,overcast clouds,-2.5744,150.7967,Nusa Island Retreat
70,Lorengau,PG,82.09,broken clouds,-2.0226,147.2712,Lorengau Harbourside Hotel
72,Khandbari,NP,46.9,overcast clouds,27.3747,87.2039,Sainik Hotel And Lodge
73,Turka,UA,31.8,overcast clouds,49.1541,23.0297,Мотель
74,Hermanus,ZA,63.81,clear sky,-34.4187,19.2345,Misty Waves Boutique Hotel
75,Puerto Leguizamo,CO,84.42,overcast clouds,-0.1934,-74.7819,la casona de juancho
77,Kant,IN,48.25,clear sky,27.8,79.8,Haseeb Khan shatreng
78,Ancud,CL,66.22,overcast clouds,-41.8697,-73.8203,Hotel Arena Gruesa
80,Buala,SB,83.14,light rain,-8.145,159.5921,Maringe Lagoon Lodge
81,Kupang,ID,79.0,overcast clouds,-10.1667,123.5833,Hotel On The Rock by Prasanthi
82,Nemuro,JP,21.88,few clouds,43.3236,145.575,Hotel Nemuro Kaiyoutei
83,Moree,AU,69.82,clear sky,-29.4667,149.85,Molika Springs Motel
85,Sobreira,PT,47.01,broken clouds,41.5237,-7.8023,Quinta de Santo Aleixo
86,Koumac,NC,82.38,moderate rain,-20.5667,164.2833,Le Monitel
87,Wilmington,US,72.99,clear sky,34.2257,-77.9447,"Hotel Ballast Wilmington, Tapestry Collection by Hilton"
88,Praia Da Vitoria,PT,57.76,scattered clouds,38.7333,-27.0667,Hotel Branco I
89,Kruisfontein,ZA,63.88,overcast clouds,-34.0033,24.7314,Oyster Bay House Rental
90,Nogent-Le-Rotrou,FR,33.03,clear sky,48.3333,1.0,La Glatine
91,Elat,IL,58.84,broken clouds,29.5581,34.9482,Club Hotel Eilat
92,Varzea Grande,BR,85.87,few clouds,-15.6467,-56.1325,Hotel Express
93,Huarmey,PE,74.77,few clouds,-10.0681,-78.1522,Hotel Miramar
94,Salinas,US,69.89,clear sky,36.6777,-121.6555,Laurel Inn & Conference Center
95,Bagamoyo,TZ,76.87,moderate rain,-6.4333,38.9,Be Swahilid B and B
97,Arraial Do Cabo,BR,76.96,scattered clouds,-22.9661,-42.0278,Pousada Porto Praia
98,Guerrero Negro,MX,66.9,clear sky,27.9769,-114.0611,"Casa Laguna, Bed & Breakfast"
100,Karratha,AU,84.04,overcast clouds,-20.7377,116.8463,ibis Styles Karratha
101,Altenstadt,DE,41.45,overcast clouds,50.2833,8.95,Hotel & Café am Limes
102,Takoradi,GH,80.38,broken clouds,4.8845,-1.7554,Raybow International Hotel
106,Namibe,AO,72.75,overcast clouds,-15.1961,12.1522,Hotel Chik Chik Namibe
107,Saldanha,ZA,63.72,clear sky,-33.0117,17.9442,Blue Bay Lodge
108,Nara,JP,38.48,scattered clouds,34.6851,135.8049,Guesthouse Nara Komachi
109,Saint-Philippe,RE,80.15,moderate rain,-21.3585,55.7679,"Chambres d'hôte ""La Trinité"""
110,Khartoum,SD,64.02,clear sky,15.5518,32.5324,Hotel China
111,Yulara,AU,66.04,clear sky,-25.2406,130.9889,Desert Gardens Hotel - Ayers Rock Resort
113,Teguise,ES,64.62,clear sky,29.0605,-13.564,B&B La Casona de Nazaret
115,Dalbandin,PK,50.74,clear sky,28.8947,64.4101,Gidaan Guest House
117,Bluff,NZ,56.8,overcast clouds,-46.6,168.3333,Bluff Homestead - Guesthouse & Campervan Park
118,Olafsvik,IS,27.55,overcast clouds,64.8945,-23.7142,Hotel Olafsvik
119,Ribeira Grande,PT,59.38,broken clouds,38.5167,-28.7,Quinta da Meia Eira
120,Castro,BR,67.59,overcast clouds,-24.7911,-50.0119,CHACARA BAILLY
122,Codrington,AU,63.12,overcast clouds,-38.2667,141.9667,Codrington Gardens Bed And Breakfast
123,Salalah,OM,71.69,few clouds,17.0151,54.0924,"HAMDAN PLAZA HOTEL SALALAH, an HTG Hotel"
124,Bethel,US,34.16,light rain,41.3712,-73.414,Courtyard by Marriott Danbury
125,Bandipur,NP,42.67,overcast clouds,27.9333,84.4167,Bandipur Guest House
126,Foumban,CM,69.39,overcast clouds,5.7291,10.9001,Hotel Pekassa De Karche
129,Kudahuvadhoo,MV,81.34,broken clouds,2.6708,72.8944,Niyama Private Islands Maldives
130,Cap Malheureux,MU,79.47,overcast clouds,-19.9842,57.6142,Pereybere Hotel & Spa
132,Miracema Do Tocantins,BR,80.62,broken clouds,-9.5618,-48.3967,Miami Apart Hotel
133,Krasnaya Polyana,RU,27.45,snow,56.242,51.1442,Bereg
134,Banda Aceh,ID,77.97,overcast clouds,5.5577,95.3222,OYO 884 Rumoh PMI Hotel
135,Skibbereen,IE,45.1,clear sky,51.55,-9.2667,The West Cork Hotel
136,Piotrkow Trybunalski,PL,40.75,overcast clouds,51.4055,19.7032,Best Western Hotel Trybunalski
137,Petropavlovsk-Kamchatskiy,RU,23.59,broken clouds,53.0452,158.6483,The Hotel Petropavlovsky
138,Sarh,TD,76.37,few clouds,9.1429,18.3923,Domicile 1sur le goudron
139,Parrita,CR,92.97,few clouds,9.5201,-84.3225,Beso del Viento
141,Antsohihy,MG,72.27,moderate rain,-14.8796,47.9875,Hotel de Ville
142,Atambua,ID,73.42,overcast clouds,-9.1061,124.8925,Pastori 1 Jemaat Polycarpus
144,Jizan,SA,77.94,clear sky,17.3333,42.6667,شهدان. ابوالحجر
148,Pointe Michel,DM,77.29,clear sky,15.25,-61.3833,Castle Comfort Lodge Dive Dominica
153,Faanui,PF,80.62,scattered clouds,-16.4833,-151.75,Bora-Bora Pearl Beach Resort & Spa
154,Touros,BR,81.5,few clouds,-5.1989,-35.4608,INN NEW HORIZON
156,Nabire,ID,76.75,overcast clouds,-3.3667,135.4833,Hotel Nusantara Nabire
158,Grand Gaube,MU,79.38,overcast clouds,-20.0064,57.6608,Veranda Paul et Virginie Hotel & Spa
160,Ahipara,NZ,76.19,overcast clouds,-35.1667,173.1667,Ahipara Holiday Park
161,Felanitx,ES,55.96,overcast clouds,39.4696,3.1483,Petit Hotel Hostatgeria Sant Salvador
162,Torbay,CA,32.76,mist,47.6666,-52.7314,Gallows Cove
163,Metro,ID,73.04,overcast clouds,-5.1131,105.3067,OYO 3177 Wisma Lintang
165,Matay,EG,55.89,overcast clouds,28.419,30.7792,Nag Aespen
166,Morant Bay,JM,82.02,few clouds,17.8815,-76.4093,Whispering Bamboo Cove Resort
168,Port Alfred,ZA,68.54,light rain,-33.5906,26.891,The Halyards Hotel
169,Eyrarbakki,IS,24.85,overcast clouds,63.863,-21.1481,Guesthouse 77
170,Prince Rupert,CA,41.09,moderate rain,54.3161,-130.3201,Crest Hotel
171,Tucuman,AR,66.2,overcast clouds,-26.8241,-65.2226,Dallas Hotel Tucuman
172,Comodoro Rivadavia,AR,60.66,few clouds,-45.8667,-67.5,Austral Hotel
173,Marsh Harbour,BS,74.57,broken clouds,26.5412,-77.0636,Abaco Beach Resort
174,Kaoma,ZM,63.68,overcast clouds,-14.7833,24.8,KAOMA AIRPORT
176,Arlit,NE,59.4,clear sky,18.7369,7.3853,Case de Passage De la Prefecture
177,Cidreira,BR,72.09,overcast clouds,-30.1811,-50.2056,Hotel Castelo
178,Kaitangata,NZ,58.93,broken clouds,-46.2817,169.8464,Kaitangata Motor Camp
179,Puerto Escondido,MX,85.03,clear sky,15.85,-97.0667,Aldea del Bazar Hotel and Spa
180,Souillac,MU,79.36,light rain,-20.5167,57.5167,Shanti Maurice Resort & Spa
181,Praya,CV,72.14,clear sky,14.9215,-23.5087,LT Aparthotel
184,Mayo,US,40.33,light rain,38.8876,-76.5119,Resorts Resource Group International
185,East London,ZA,68.83,light rain,-33.0153,27.9116,Tu Casa
187,Rocha,UY,71.71,scattered clouds,-34.4833,-54.3333,Hotel Arrarte
188,Matamoros,MX,50.11,broken clouds,25.5333,-103.25,Quinta Belem
189,Bejar,ES,44.58,overcast clouds,40.3864,-5.7634,Posada Puerta Grande
190,Kloulklubed,PW,81.59,scattered clouds,7.0419,134.2556,Storyboard Beach Resort
191,Harper,LR,79.99,scattered clouds,4.375,-7.7169,Screensaver
192,Kirksville,US,29.05,few clouds,40.1948,-92.5833,Budget Host-Village Inn
193,Eureka,US,56.19,overcast clouds,40.8021,-124.1637,Eureka Inn Trademark By Wyndham
195,Safaga,EG,58.95,clear sky,26.7292,33.9365,Lamar Resort Abu Soma
196,Carnarvon,AU,83.23,broken clouds,-24.8667,113.6333,Hospitality Carnarvon
197,Hadsund,DK,37.89,light rain,56.7148,10.1168,Færgekroen Hadsund
200,Yeppoon,AU,76.78,overcast clouds,-23.1333,150.7333,Villa Mar Colina
201,Vila Velha,BR,78.94,broken clouds,-20.3297,-40.2925,Hotel Vitória Palace
202,Manaus,BR,77.49,light rain,-3.1019,-60.025,Manaus Hotéis Millennium
203,Vila Franca Do Campo,PT,61.2,overcast clouds,37.7167,-25.4333,Pestana Bahia Praia
205,Cedar City,US,39.4,clear sky,37.6775,-113.0619,Hampton Inn Cedar City
206,Mar Del Plata,AR,70.09,moderate rain,-38.0023,-57.5575,Gran Hotel Mar del Plata
207,Dicabisagan,PH,73.92,overcast clouds,17.0818,122.4157,Nancy Montanes Bernardo
209,Abha,SA,57.02,clear sky,18.2164,42.5053,Abha Hotel
210,Te Anau,NZ,52.48,scattered clouds,-45.4167,167.7167,Kingsgate Hotel Te Anau
211,Pandan,PH,75.54,overcast clouds,14.0453,124.1694,Bonifacio Lodge
212,Bom Jesus,BR,79.79,broken clouds,-9.0744,-44.3586,Hotel Brasão & Floricultura Bella Flor
213,Bukene,TZ,61.86,overcast clouds,-4.2333,32.8833,New Millenium Lodge
214,Saint George,US,52.43,clear sky,37.1041,-113.5841,Best Western Plus Abbey Inn
216,Princeton,US,79.02,clear sky,25.5384,-80.4089,American Best Inn
217,Asau,RO,32.4,scattered clouds,46.4333,26.4,Casa Mika Ciobanus
220,Bengkulu,ID,73.02,overcast clouds,-3.8004,102.2655,Grage Hotel Bengkulu
222,Lagoa,PT,57.92,broken clouds,39.05,-27.9833,Casa Das Faias
224,Pizarro,CO,80.37,light rain,4.9533,-77.366,Hotel Limonar
225,Bathsheba,BB,79.41,scattered clouds,13.2167,-59.5167,Atlantis Hotel
226,Quelimane,MZ,74.03,scattered clouds,-17.8786,36.8883,Hotel Flamingo
227,Guanica,PR,78.15,few clouds,17.9716,-66.908,Copamarina Beach Resort & Spa
228,Kandrian,PG,83.16,overcast clouds,-6.2167,149.55,Kandrian Station
229,Mecca,SA,60.64,scattered clouds,21.4267,39.8261,"Makkah Clock Royal Tower, A Fairmont Hotel"
230,Zaragoza,ES,52.81,few clouds,41.6561,-0.8773,INNSiDE Zaragoza
231,Manta,EC,82.18,scattered clouds,-0.95,-80.7333,Balandra Hotel
233,Alofi,NU,82.29,overcast clouds,-19.0595,-169.9187,Taloa Heights
234,Caravelas,BR,77.0,overcast clouds,-17.7125,-39.2481,Pousada dos Navegantes
235,Grindavik,IS,27.07,overcast clouds,63.8424,-22.4338,Northern Light Inn & Max's Restaurant
236,Warrington,GB,42.46,scattered clouds,53.3925,-2.5802,Villaggio Hotel
237,Lovington,US,40.32,clear sky,32.944,-103.3485,Buena vida rv parks
239,Marietta,US,43.61,overcast clouds,33.9526,-84.5499,Hilton Atlanta/Marietta Hotel & Conference Center
240,Iralaya,HN,80.42,clear sky,15.0,-83.2333,Iglesia morava renovada
241,Madang,PG,78.58,heavy intensity rain,-5.2246,145.7966,Comfort Inn Hotel
243,Colares,PT,55.33,overcast clouds,38.7992,-9.4469,Arribas Sintra Hotel
244,Ambovombe,MG,75.24,few clouds,-25.1667,46.0833,RELAHARA
247,Arrifes,PT,59.23,few clouds,37.7667,-25.7,Hotel Ponta Delgada
248,Sinor,IN,60.91,clear sky,21.9167,73.3333,Reva Forest Homestay
250,Kragero,NO,33.46,clear sky,58.8693,9.4149,Kragerø Sportell and Apartments
251,Klaksvik,FO,36.52,overcast clouds,62.2266,-6.589,Airbnb rooms
252,Kashi,CN,24.01,few clouds,39.4547,75.9797,帕米尔青年旅舍
253,Sambava,MG,77.45,overcast clouds,-14.2667,50.1667,Melrose
254,Raikot,IN,43.63,clear sky,30.65,75.6,Gurdeep Boutique
255,Cockburn Town,TC,75.94,clear sky,21.4612,-71.1419,Osprey Beach Hotel
256,Coahuayana,MX,90.88,clear sky,18.7333,-103.6833,El rranchito michuacan de ocampos
257,Moratuwa,LK,77.02,few clouds,6.773,79.8816,Sa Mansion By Yoho
258,Kailua,US,81.14,clear sky,21.4022,-157.7394,Sheffield House Bed & Breakfast
259,La Peca,PE,83.71,broken clouds,-5.6111,-78.435,Hospedaje San Miguelito
260,Abu Dhabi,AE,66.96,clear sky,24.4667,54.3667,Beach Rotana
261,San Miguel Ixtahuacan,GT,66.54,scattered clouds,15.25,-91.75,Aldea Baljetre
262,San Fernando,PH,77.14,scattered clouds,15.0286,120.6898,Maharlika Hostel
263,Lompoc,US,71.69,clear sky,34.6391,-120.4579,"Holiday Inn Express Lompoc, an IHG Hotel"
266,Carbonia,IT,52.45,clear sky,39.1672,8.5222,Lu 'Hotel
267,Road Town,VG,73.49,few clouds,18.4167,-64.6167,"ZINGARA 76ft Catamaran, full crew-all included"
269,Constitucion,CL,66.11,few clouds,-35.3333,-72.4167,Hotel Boutique Las Azucenas
271,Wah,PK,47.01,clear sky,33.798,72.6957,UW Boys Hostel 27 Area Wah
272,Grafton,US,28.67,light snow,42.207,-71.6856,The Grafton Inn
274,Gamboma,CG,76.05,overcast clouds,-1.8764,15.8644,Residence N'Keni
276,Mabaruma,GY,76.39,clear sky,8.2,-59.7833,Monty Brooms Guest House
277,Moron,AR,77.97,overcast clouds,-34.6534,-58.6198,Hotel Morón
279,Ampanihy,MG,72.23,scattered clouds,-24.7,44.75,Angora Hotel
281,Meulaboh,ID,75.47,overcast clouds,4.1363,96.1285,Kost Pria
282,Victoria,HK,58.24,overcast clouds,22.2855,114.1577,Mini Hotel Central
283,Weinan,CN,35.29,broken clouds,34.5036,109.5089,Thank Inn Chain Hotel shanxi weinan linwei district jiefang road
284,Berlevag,NO,21.83,overcast clouds,70.8578,29.0864,Kvitbrakka
285,Santa Rosa,PH,77.11,overcast clouds,14.3122,121.1114,Erlyn’s Sta Rosa City Home
286,Kahului,US,85.26,few clouds,20.8947,-156.47,Maui Seaside Hotel
287,Coihueco,CL,81.34,few clouds,-36.6167,-71.8333,Frutillares Centro Coihueco
288,Pacific Grove,US,69.48,clear sky,36.6177,-121.9166,Lovers Point Inn
289,Mercedes,AR,76.17,overcast clouds,-34.6515,-59.4307,Posada del Inti Centro
290,Inhambane,MZ,79.21,broken clouds,-23.865,35.3833,Oceano
291,Winslow,US,42.96,clear sky,35.0242,-110.6974,Best Western Plus Winslow Inn
292,Talcahuano,CL,64.56,clear sky,-36.7167,-73.1167,departamento comodo
293,Bonthe,SL,77.41,scattered clouds,7.5264,-12.505,Bonthe Holiday Village
294,Sao Filipe,CV,73.53,clear sky,14.8961,-24.4956,Hotel Xaguate
295,Bure,ET,63.32,overcast clouds,10.7,37.0667,Holiday
297,Tual,ID,83.73,overcast clouds,-5.6667,132.75,Grand Vilia Hotel
298,Tura,IN,51.21,broken clouds,25.5198,90.2201,Hotel RIKMAN Continental
302,The Valley,AI,73.26,few clouds,18.217,-63.0578,CeBlue Villas & Beach Resort
303,Jalingo,NG,74.05,clear sky,8.8833,11.3667,Debright Motel
304,Ko Samui,TH,82.06,light rain,9.5357,99.9357,The Passage
305,Fortuna,US,61.41,clear sky,40.5982,-124.1573,Super 8 by Wyndham Fortuna
306,San Ramon,US,66.4,clear sky,37.7799,-121.978,San Ramon Marriott
307,Mount Gambier,AU,61.34,overcast clouds,-37.8333,140.7667,The Commodore
309,Esperance,AU,62.44,clear sky,-33.8667,121.9,Hospitality Esperance
311,Inndyr,NO,23.04,scattered clouds,67.0338,14.0276,Heimsjyen
312,Mogadishu,SO,76.46,scattered clouds,2.0371,45.3438,Hotel Juba
313,Nizwa,OM,66.38,clear sky,22.9333,57.5333,Orient Apartments
315,Alice Springs,AU,60.35,clear sky,-23.7,133.8833,Desert Palms Alice Springs
316,Broome,US,20.62,scattered clouds,42.2506,-75.833,Chenango Valley State Park
317,Hollola,FI,20.01,light snow,61.05,25.4333,Villa Aleksi
318,Matara,LK,73.18,scattered clouds,5.9485,80.5353,Amaloh Boutique Resort
320,Bubaque,GW,78.17,clear sky,11.2833,-15.8333,"Casa Dora, Bubaque"
321,Georgetown,MY,78.89,scattered clouds,5.4112,100.3354,Cititel Penang
323,Bria,CF,77.07,overcast clouds,6.5423,21.9863,WFP Guesthouse
324,Mangrol,IN,64.31,clear sky,21.1167,70.1167,Hotel The Royal Honours
325,Diamantino,BR,78.87,broken clouds,-14.4086,-56.4461,Hotel Delta
326,Mildura,AU,72.07,overcast clouds,-34.2,142.15,Mercure Hotel Mildura
328,Dir,PK,30.94,clear sky,35.2058,71.8756,Sindh Hotal Dir
329,Ammon,US,20.95,overcast clouds,43.4696,-111.9666,"Holiday Inn Express & Suites Idaho Falls, an IHG Hotel"
330,Shwebo,MM,59.83,clear sky,22.5667,95.7,MOON SHINE Guest House
331,Huntsville,US,33.93,overcast clouds,34.7304,-86.5861,Embassy Suites by Hilton Huntsville Hotel & Spa
332,Gautier,US,41.09,light rain,30.3858,-88.6117,Magnolia Inn of Gautier
333,Shubarkuduk,KZ,27.82,overcast clouds,49.1447,56.4872,Sirius
334,San Cristobal,VE,77.18,broken clouds,7.7669,-72.225,Pirineos
335,Visnes,NO,38.21,broken clouds,59.3556,5.2242,Park Inn Haugesund Airport
337,Northam,GB,44.62,broken clouds,51.0333,-4.2167,Durrant House Hotel
338,Nelson Bay,AU,73.0,overcast clouds,-32.7167,152.15,Mantra Nelson Bay
339,Maheshwar,IN,60.85,clear sky,22.1833,75.5833,Hotel Kanchan Recreation
340,Ngawi,ID,74.05,broken clouds,-7.4038,111.4461,"""G.W.A. KOST"" NGAWI"
341,Cabo San Lucas,MX,74.61,clear sky,22.8909,-109.9124,Hotel Tesoro Los Cabos
342,Tasiilaq,GL,24.96,overcast clouds,65.6145,-37.6368,The Red House
344,Los Amates,GT,94.19,broken clouds,15.2667,-89.1,Las Basas
345,Tuatapere,NZ,56.82,overcast clouds,-46.1333,167.6833,Ron and Tony's Bed & Breakfast
346,Haimen,CN,49.89,overcast clouds,23.1935,116.6142,Jinghao Business Hotel
347,French Harbor,HN,82.4,broken clouds,16.35,-86.4333,"Fantasy Island Beach Resort, Dive & Marina"
348,Waingapu,ID,77.5,scattered clouds,-9.6567,120.2641,Pondok Wisata Elim
349,Hawalli,KW,64.56,clear sky,29.2833,47.9972,"Holiday Inn Kuwait al Thuraya City, an IHG Hotel"
350,Ergani,TR,35.15,broken clouds,38.2653,39.7621,Serkan Hotel
353,Shingu,JP,39.9,scattered clouds,33.7333,135.9833,Shingu UI Hotel
354,Betare Oya,CM,71.26,overcast clouds,5.6,14.0833,Auberge Tembina Betaré Oya
355,Shimoda,JP,37.11,few clouds,34.6667,138.95,Shimoda Tokyu Hotel
356,Sao Fidelis,BR,75.83,overcast clouds,-21.6461,-41.7469,Hotel São José
357,Viedma,AR,66.38,overcast clouds,-40.8135,-62.9967,Hotel Cristal
360,Jertih,MY,80.47,overcast clouds,5.7336,102.4897,One Utama Hotel
361,Queimadas,BR,81.14,overcast clouds,-10.9783,-39.6264,Hotel Mandala
363,La Ligua,CL,69.58,clear sky,-32.4524,-71.2311,Hotel Anchimallen
365,Kankipadu,IN,67.05,scattered clouds,16.45,80.7833,Moshe tiffin center
366,Placerville,US,62.51,clear sky,38.7296,-120.7986,Historic Cary House Hotel
367,Marienburg,PL,43.12,overcast clouds,54.0359,19.0266,Hotel Centrum Malbork
369,Chai Nat,TH,80.06,overcast clouds,15.1167,100.1,Thai Boxing ROSEINN RESORT
370,Mubi,NG,66.11,broken clouds,10.2676,13.2644,Hotel
372,El Alto,PE,74.86,scattered clouds,-4.2714,-81.2147,Black Marlin Restaurant & Hospedaje
373,Illapel,CL,75.87,clear sky,-31.6308,-71.1653,Hotel Londres
374,Tateyama,JP,44.53,scattered clouds,34.9833,139.8667,Tateyama Seaside Hotel
375,Merke,KZ,31.05,clear sky,42.8728,73.1786,Gostinitsa Merki
376,San Quintin,MX,62.01,clear sky,30.4833,-115.95,Don Eddie's Landing
377,Gushikawa,JP,58.23,overcast clouds,26.3544,127.8686,Kirari Guest House
378,Yining,CN,34.56,clear sky,29.0361,114.5636,Xiushui Hotel
379,Tezu,IN,57.52,overcast clouds,27.9167,96.1667,Circuit House
381,Molepolole,BW,73.54,light rain,-24.4066,25.4951,Butterfly Tree Guesthouse
382,Oyama,JP,39.58,clear sky,36.3,139.8,Toyoko Inn Oyama-eki Higashi-guchi No.1
383,Grants,US,32.23,clear sky,35.1473,-107.8514,"Motel 6 Grants, NM"
384,Maceio,BR,78.24,few clouds,-9.6658,-35.7353,Hotel Ponta Verde Maceió
385,Dwarka,IN,69.08,clear sky,22.2394,68.9678,Hotel Narayan Avezika Comfort
386,Sainte-Maxime,FR,54.68,scattered clouds,43.3,6.6333,Hôtel Les Jardins De Sainte Maxime
388,Nouadhibou,MR,69.78,clear sky,20.931,-17.0347,El Medina
389,Awbari,LY,51.03,clear sky,26.5921,12.7805,فندق أوباري
392,Camacha,PT,59.54,few clouds,33.0833,-16.3333,Hotel Porto Santo & Spa
393,Cali,CO,78.8,scattered clouds,3.4372,-76.5225,Hotel La Luna
394,Mount Pleasant,US,68.14,heavy intensity rain,32.7941,-79.8626,Best Western Patriots Point
396,Kalianget,ID,77.76,broken clouds,-7.05,113.9333,Pesanggrahan Garam
397,Tela,HN,88.02,scattered clouds,15.7833,-87.45,Hotel & Restaurante Cesar Mariscos
398,Andilamena,MG,66.83,light rain,-17.0167,48.5833,Police men home Andilamina
399,Mayumba,GA,76.71,broken clouds,-3.432,10.6554,LIKWALE LODGE
400,Jaumave,MX,40.95,scattered clouds,23.4167,-99.3833,HOTEL CIENEGA
401,Umm Lajj,SA,61.75,clear sky,25.0213,37.2685,Moon light Furnished Units
402,Rio Grande,BR,76.95,scattered clouds,-32.035,-52.0986,Hotel Atlântico Rio Grande
404,East Moline,US,21.42,overcast clouds,41.5009,-90.4443,Residence Inn by Marriott Moline Quad Cities
405,Mahebourg,MU,79.25,broken clouds,-20.4081,57.7,Shandrani Beachcomber Resort & Spa
409,Lisala,CD,73.89,overcast clouds,2.15,21.5167,Flat hôtel tozelaka
410,Calabozo,VE,91.15,overcast clouds,8.9242,-67.4293,Hotel Giardini
412,Coos Bay,US,52.14,overcast clouds,43.3665,-124.2179,Best Western Holiday Hotel
413,Angoche,MZ,77.83,overcast clouds,-16.2325,39.9086,Guest House HESADA
415,San Pedro,PH,76.35,broken clouds,14.35,121.0167,Palines Apartment and Guesthouse
416,Muscat,OM,64.42,few clouds,23.6139,58.5922,Mutrah Hotel
418,Cayenne,GF,79.09,broken clouds,4.9333,-52.3333,Hôtel Le Dronmi
419,Najran,SA,66.85,clear sky,17.4924,44.1277,محمد هادي ال فطيح
421,Natal,BR,82.62,few clouds,-5.795,-35.2094,Villa Park Hotel | Natal
422,Lindsay,US,68.0,clear sky,36.203,-119.0882,Lindsay Inn
423,Cajuru,BR,81.57,overcast clouds,-21.2753,-47.3042,Hotel Tropical Cajuru
424,Marystown,CA,36.86,overcast clouds,47.1666,-55.1483,Marystown Hotel & Convention Centre
425,Maarianhamina,AX,37.26,moderate rain,60.0973,19.9348,Park Alandia Hotel
426,Geraldton,AU,72.01,clear sky,-28.7667,114.6,Broadwater Mariner Resort
427,Victor Harbor,AU,71.69,overcast clouds,-35.5667,138.6167,McCracken Country Club
428,Olinda,BR,82.13,scattered clouds,-8.0089,-34.8553,Flat Quatro Rodas Olinda
429,Hofn,IS,26.62,clear sky,64.2539,-15.2082,Hótel Höfn
430,Xichang,CN,38.84,clear sky,27.8964,102.2634,Xichang ibis Hotel
431,Sitka,US,42.69,mist,57.0531,-135.33,Westmark Sitka
432,Estelle,US,39.99,mist,29.8458,-90.1067,Boomtown Casino & Hotel New Orleans
433,Sabak,MY,73.45,clear sky,3.7675,100.9875,Homestay Nur Kasih Inap Desa
435,Gizo,SB,83.03,moderate rain,-8.103,156.8419,Imagination Island
436,Tazmalt,DZ,56.3,overcast clouds,36.3868,4.3989,Hôtel Numédia
438,Develi,TR,25.95,broken clouds,38.3906,35.4922,DEVELİ TEACHER AND ASO
439,Sibul,PH,76.66,broken clouds,15.169,121.0616,Sibul Spring Resort
440,Santa Isabel Do Rio Negro,BR,77.11,broken clouds,-0.4139,-65.0192,Hotel GSA
441,Andenes,NO,22.98,broken clouds,69.3143,16.1194,Hotell Marena
442,Lebedyn,UA,20.41,overcast clouds,50.5852,34.4849,"The regional Children's multi-resort ""Lebedin"""
443,Vao,NC,80.29,moderate rain,-22.6667,167.4833,Hotel Kou-Bugny
444,Shu,KZ,30.18,clear sky,43.5983,73.7614,Shyngyzkhan
445,Hendaye,FR,53.26,overcast clouds,43.3717,-1.7738,Parador de Hondarribia
446,Itarema,BR,80.08,overcast clouds,-2.9248,-39.9167,"Sea Lounge! Bar, Club & Restaurant"
447,Buraydah,SA,59.45,clear sky,26.326,43.975,Mövenpick Qassim
448,Mareeba,AU,75.43,overcast clouds,-17.0,145.4333,Trinity Plains Tourist Park
449,Plettenberg Bay,ZA,65.28,overcast clouds,-34.0527,23.3716,Thanda Vista B&B
452,Fort Morgan,US,37.81,clear sky,40.2503,-103.8,Hampton Inn Fort Morgan
453,Cozumel,MX,84.27,scattered clouds,20.5083,-86.9458,Cozumel Palace® All Inclusive Resort
454,Ilheus,BR,82.22,scattered clouds,-14.7889,-39.0494,Pontal Praia Hotel
455,Acoyapa,NI,87.89,clear sky,11.9703,-85.1711,Hotel y Restaurante Los Robles
457,Halifax,CA,33.22,snow,44.6453,-63.5724,Hotel Halifax
458,Coihaique,CL,75.15,few clouds,-45.5752,-72.0662,Diego De Almagro Coyhaique
459,Hirara,JP,61.07,broken clouds,24.8,125.2833,Hotel Atoll Emerald Miyakojima
460,Basco,PH,72.25,overcast clouds,20.4487,121.9702,Nathaniel's Lodge
461,Powell,US,23.18,overcast clouds,40.1578,-83.0752,The Brig
462,Taiping,MY,73.6,broken clouds,4.85,100.7333,Flemington Hotel
463,Milledgeville,US,58.77,overcast clouds,33.0801,-83.2321,Hampton Inn Milledgeville
464,Sola,VU,81.52,light rain,-13.8833,167.55,Leumerus Bungalows
465,Kulhudhuffushi,MV,81.01,scattered clouds,6.6221,73.07,Haajy Guest House 1
466,Garissa,KE,80.6,overcast clouds,-0.4536,39.6401,Sharif Plaza Hotel
467,Port-Gentil,GA,80.02,broken clouds,-0.7193,8.7815,Fengshui Residence
468,Katsuura,JP,44.62,scattered clouds,35.1333,140.3,Katsuura Hotel Mikazuki
469,Rawson,AR,61.36,broken clouds,-43.3002,-65.1023,Hosteria Sampedro
471,Never,FR,40.8,overcast clouds,46.9896,3.159,Hôtel Kyriad Nevers Centre
473,Nishihara,JP,58.28,overcast clouds,26.1842,127.7558,Minshuku Agaihama
476,Callaway,US,53.53,moderate rain,30.153,-85.5699,"Holiday Inn Express & Suites Panama City-Tyndall, an IHG Hotel"
477,Ransang,PH,77.49,broken clouds,8.9603,117.5828,Black and Crystal Sand Campsite
479,Chalus,IR,51.26,broken clouds,36.655,51.4204,نظام مهندسي ساختمان چالوس
480,Panalingaan,PH,76.87,overcast clouds,8.7842,117.4231,I Love Panalingaan View Deck
481,Nicoya,CR,90.95,scattered clouds,10.1483,-85.452,Las Cabinas Del Sueño
482,Woonsocket,US,31.14,snow,42.0029,-71.5148,"Holiday Inn Express & Suites Providence-Woonsocket, an IHG Hotel"
484,Wellington,NZ,61.77,light rain,-41.2866,174.7756,CityLife Wellington
487,Vestmannaeyjar,IS,32.85,overcast clouds,63.4427,-20.2734,Glamping & Camping
488,Kisangani,CD,73.58,overcast clouds,0.5167,25.2,Grand Ramela Hotel
489,Kingaroy,AU,66.24,clear sky,-26.5333,151.8333,Ascot Lodge Motel Kingaroy
490,Dongkan,CN,25.48,clear sky,33.9997,119.8308,Triumphal Resort
493,Kavaratti,IN,78.12,overcast clouds,10.5669,72.642,Hotels in Lakshadweep Islands
494,Oktyabrskiy,RU,27.64,light snow,54.4815,53.471,Гостиница Октябрьская
495,Khuzdar,PK,51.03,clear sky,27.7384,66.6434,jhalwan Rent A Car Compny Moola Chotok
497,Plouzane,FR,44.92,few clouds,48.3833,-4.6167,Lymina
500,Solwezi,ZM,59.56,overcast clouds,-12.1688,26.3894,Country Lodge Solwezi
504,Makakilo City,US,79.12,clear sky,21.3469,-158.0858,Marriott's Ko Olina Beach Club
505,Namatanai,PG,83.8,overcast clouds,-3.6667,152.4333,Seagulls Inn Namatani
506,Los Llanos De Aridane,ES,60.55,clear sky,28.6585,-17.9182,Valle Aridane
508,Honningsvag,NO,20.21,light snow,70.9821,25.9704,Nordkapp Vandrerhjem
510,Vanderhoof,CA,38.41,broken clouds,54.0166,-124.0198,Vanderhoof Inn
512,Lasa,IT,40.46,broken clouds,46.6166,10.7002,Pension Feldgärtenhof
513,Pozo Colorado,PY,95.4,broken clouds,-23.4923,-58.7972,Hospedaje la Amistad
515,Bhatapara,IN,55.45,clear sky,21.7333,81.9333,THE BABBU PARADISE
516,Humberto De Campos,BR,75.85,moderate rain,-2.5983,-43.4611,Pousada do Cabeça
519,Varhaug,NO,37.89,snow,58.6147,5.6457,Jonas Bue
520,Moche,PE,71.78,few clouds,-8.1711,-79.0092,Wyndham Costa del Sol Trujillo
522,Port Hardy,CA,46.58,light rain,50.6996,-127.4199,Airport Inn-Port Hardy
524,Weatherford,US,33.46,clear sky,32.7593,-97.7972,"Candlewood Suites Weatherford, an IHG Hotel"
525,Gunnedah,AU,69.42,few clouds,-30.9833,150.25,Gunnedah Motor Inn
526,Zenzeli,RU,35.6,light rain,45.9241,47.0474,"Gostinitsa ""Zvezdnaya"""
528,Riyadh,SA,66.34,scattered clouds,24.6877,46.7219,"InterContinental Riyadh, an IHG Hotel"
530,Aswan,EG,52.9,clear sky,24.0934,32.907,Nuba Nile
531,Neiafu,TO,79.97,moderate rain,-18.65,-173.9833,Mystic Sands Beachfront Accommodation
533,Bac Lieu,VN,78.1,scattered clouds,9.285,105.7244,Khách sạn Sài Gòn Bạc Liêu
534,Lalibela,ET,58.17,scattered clouds,12.0333,39.0333,Honey Land Hotel Lalibela
535,Navolato,MX,80.64,clear sky,24.7672,-107.6944,Cofradía de San pedro Navolato sinaloa
537,Ishigaki,JP,60.93,broken clouds,24.3448,124.1572,Ishigaki Resort Granvrio
539,Balarampur,IN,55.51,clear sky,23.1167,86.2167,Ashok general store
540,Moyo,UG,76.64,overcast clouds,3.6609,31.7247,Amelia Guest House
543,Moncton,CA,23.59,snow,46.1159,-64.8019,"Crowne Plaza Moncton Downtown, an IHG Hotel"
544,Batemans Bay,AU,66.99,overcast clouds,-35.7167,150.1833,Batemans Bay Marina Resort
545,Cukai,MY,80.55,broken clouds,4.25,103.4167,OYO 90038 Dalyla Inn Chalet
547,Havelock,US,73.63,broken clouds,34.8791,-76.9013,Sherwood Motel
548,Vladeni,RO,38.95,clear sky,47.7167,26.5167,"Motel Restaurant ""Stejarul"""
550,Portland,US,50.74,overcast clouds,45.5234,-122.6762,Embassy Suites by Hilton Portland Downtown
552,Anloga,GH,82.62,clear sky,5.7947,0.8973,Pin Drop Hotel
553,Pochutla,MX,87.82,few clouds,15.7432,-96.4661,Hotel Posada San Jose
554,Saint-Francois,FR,45.84,broken clouds,46.4154,3.9054,Manoir Du Bonheur
555,Morro Bay,US,71.58,clear sky,35.3658,-120.8499,Inn at Morro Bay
556,Axim,GH,79.29,few clouds,4.8699,-2.2405,Axim Beach Resort And Spa
558,Nivala,FI,22.68,light snow,63.9167,24.9667,Hotelli Huiskankorpi / Aseman majatalo
561,Nacimiento,CL,81.37,broken clouds,-37.5,-72.6667,Residencial San Marcos
562,Lakeland,US,84.0,scattered clouds,28.0395,-81.9498,"The Terrace Hotel Lakeland, Tapestry Collection by Hilton"
563,Bardiyah,LY,52.02,clear sky,31.7561,25.0865,بورتو بردية
564,Avanigadda,IN,67.87,scattered clouds,16.0215,80.9181,AP Camping
565,Bodden Town,KY,80.01,broken clouds,19.2833,-81.25,Will T Place
566,Pitangui,BR,70.93,overcast clouds,-19.6828,-44.8903,Pousada Monsenhor Vicente
567,Suluq,LY,50.79,clear sky,31.6682,20.2521,ورشة الحضيري لاكترونات وخدمات النت
568,Norfolk,US,31.62,mist,42.1668,-71.2495,Residence Inn by Marriott Boston Norwood/Canton
569,Phalodi,IN,58.96,clear sky,27.1333,72.3667,"HOTEL NEW GOLDEN PALACE , PHALODI"
570,Yanam,IN,67.17,scattered clouds,16.7333,82.2167,The Regency Hotel
571,Bang Saphan,TH,74.01,scattered clouds,11.2126,99.5117,Ladawan Boutique Hotel
572,Veraval,IN,63.95,clear sky,20.9,70.3667,Lords Inn Somnath
573,Show Low,US,40.6,clear sky,34.2542,-110.0298,Hampton Inn & Suites Show Low-Pinetop
575,Curup,ID,66.96,overcast clouds,-3.4667,102.5333,Ayi The Costel
576,Santa Cruz,BO,82.45,broken clouds,-17.8,-63.1667,Aviador Hotel Boutique
577,Bayonet Point,US,80.83,clear sky,28.3267,-82.6834,"Holiday Inn Express & Suites Port Richey, an IHG Hotel"
579,Port Hedland,AU,84.25,overcast clouds,-20.3167,118.5667,"The Esplanade Hotel (Accommodation section closed for refurbishment - Bar, Restaurant & Functions remain open)"
580,Rogozno,PL,44.29,overcast clouds,52.7523,16.9905,Ośrodek Rekreacyjno Sportowy
581,Cabra,ES,55.4,overcast clouds,37.4725,-4.4421,MS Fuente Las Piedras
582,Puerto Varas,CL,69.85,few clouds,-41.3195,-72.9854,Hotel Solace Puerto Varas
583,Methoni,GR,47.21,clear sky,36.8197,21.7049,Methoni Beach Hotel
584,Galesong,ID,73.42,overcast clouds,-5.3166,119.3661,Sapriadi Appy
585,Lake Havasu City,US,63.21,clear sky,34.4839,-114.3224,Heat Hotel
586,Vila Do Maio,CV,72.39,clear sky,15.1333,-23.2167,Hotel Marilu
587,Fuling,CN,44.58,overcast clouds,29.7022,107.3919,Yingbin Hostel
590,Valdivia,CL,71.69,scattered clouds,-39.8142,-73.2459,Hostal Entre Rios
591,Mattru,SL,73.06,scattered clouds,7.6244,-11.8332,"Mondkor Town, Bagbo Chiefdom, Bo District"
592,Coyah,GN,79.75,clear sky,9.75,-13.4167,Motel Canal+
594,Sorland,NO,31.87,broken clouds,67.667,12.6934,Sjybrygga fiskecamp
596,Samana,DO,78.76,scattered clouds,19.2056,-69.3369,The Bannister - Hotel & Yacht Club
597,Luanda,AO,77.0,few clouds,-8.8368,13.2343,EPIC SANA Luanda
598,Matata,NZ,78.15,broken clouds,-37.8833,176.75,Matata B&B
599,Lahaina,US,85.24,clear sky,20.8783,-156.6825,Lahaina Shores Beach Resort
600,Naze,JP,52.72,broken clouds,28.3667,129.4833,Shishime Hotel
601,Bideford,GB,45.32,scattered clouds,51.0179,-4.2046,Durrant House Hotel
602,Dasoguz,TM,40.95,overcast clouds,41.8363,59.9666,Hotel Erik
603,Xiongzhou,CN,41.68,broken clouds,25.1167,114.3,Xinhewan Business Hotel
604,Ambunti,PG,81.07,overcast clouds,-4.2365,142.8448,AMBUNTI HIDE INN
605,Carballo,ES,50.9,overcast clouds,43.213,-8.691,Pazo do Souto
607,Hamilton,US,25.12,overcast clouds,39.1834,-84.5333,Six Acres Bed & Breakfast
609,Emerald,AU,75.34,clear sky,-23.5333,148.1667,The Irish Village
611,Dingle,PH,74.34,overcast clouds,10.9995,122.6711,SEGAYA PROPERTY
612,Ketchikan,US,43.27,moderate rain,55.3422,-131.6461,Snow's Cove Lodge
613,Huaidian,CN,29.16,clear sky,33.4333,115.0333,Xihuan Hotel
614,Palora,EC,73.51,light rain,-1.7,-77.9333,Rancho grande
616,Noumea,NC,87.78,overcast clouds,-22.2763,166.4572,Hôtel Le Lagon
617,Mage,BR,84.42,broken clouds,-22.6528,-43.0406,Canopus Hotel
618,Mae Sai,TH,63.72,clear sky,20.4335,99.8762,Piyaporn Hill Paradise Hotel
620,Znamenskoye,RU,21.61,overcast clouds,57.1281,73.8282,"Gostinitsa ""Kolos"""
623,Eydhafushi,MV,80.74,clear sky,5.1033,73.0708,Soneva Fushi
624,Soyo,AO,77.92,broken clouds,-6.1349,12.3689,Hotel Mpampa
626,Mae Chan,TH,64.06,clear sky,20.1467,99.8526,Kiang Dao Resort
627,Haverfordwest,GB,42.39,scattered clouds,51.8017,-4.9691,Coastal Cottages of Pembrokeshire
628,Cam Ranh,VN,73.36,scattered clouds,11.9214,109.1591,OYO 598 Peony Hotel
631,Bandarbeyla,SO,73.24,clear sky,9.4942,50.8122,JABIR HOTEL
634,Pitimbu,BR,81.19,scattered clouds,-7.4706,-34.8086,Reserva do Abiaí
636,Hinatuan,PH,76.41,overcast clouds,8.3722,126.3342,Villa Juanita Hinatuan
638,Ajdabiya,LY,52.39,clear sky,30.7554,20.2263,Almadina Hotel
640,Yazykovo,RU,25.34,light snow,55.2199,56.1353,Children's camp
641,Padang,ID,73.45,overcast clouds,-0.9492,100.3543,Mercure Padang
642,Terpinnya,UA,25.43,broken clouds,46.9697,35.4197,Hotel Style Kharkiv
644,Skelleftea,SE,33.01,overcast clouds,64.7507,20.9528,Quality Hotel Skellefteå Stadshotell
645,Muroto,JP,35.64,broken clouds,33.2833,134.15,Oota Ryokan
646,Dunedin,NZ,58.8,overcast clouds,-45.8742,170.5036,Scenic Hotel Southern Cross
647,Caramay,PH,77.16,overcast clouds,10.1815,119.236,Peace and Love Beach Club
648,Oudtshoorn,ZA,61.16,broken clouds,-33.5907,22.2014,Earthbound Guest House
649,Bucerias,MX,76.98,broken clouds,20.75,-105.3333,Royal Decameron Complex - Puerto Vallarta
650,Aksu,CN,26.76,overcast clouds,41.1231,80.2644,Pudong Holiday Hotel
654,Bichena,ET,56.98,scattered clouds,10.45,38.2,Dagm Tesfa Hotel ዳግም ተስፋ ሆቴል
655,San Luis,AR,83.89,scattered clouds,-33.295,-66.3356,Huarpes Hotel
656,Fez,MA,50.25,clear sky,34.0372,-4.9998,Hotel Mounia Fès
657,Magan,ES,55.29,overcast clouds,39.9683,-3.931,Hotel Pattaya
658,Krasnyy Yar,RU,33.73,overcast clouds,46.5331,48.3456,Cottege near Ufa
659,Auki,SB,81.82,overcast clouds,-8.7676,160.7034,Auki Motel
662,Kitaibaraki,JP,30.15,clear sky,36.7833,140.75,Isohara Seaside Hotel
663,Fare,PF,80.62,broken clouds,-16.7,-151.0167,Maitai Lapita Village Huahine
665,Shimoga,IN,60.3,scattered clouds,13.9167,75.5667,CLIFF EMBASSY BANQUET AND SUITES
666,Kununurra,AU,78.78,broken clouds,-15.7667,128.7333,Hotel Kununurra
667,Antalaha,MG,75.96,light rain,-14.9003,50.2788,Hotel Vitasoa
668,Pando,UY,75.6,broken clouds,-34.7167,-55.95,viviendas mvotma
669,Kumluca,TR,45.68,broken clouds,36.3703,30.2869,TurkuazKöy
670,Pithora,IN,55.04,clear sky,21.2667,82.5167,"Government Scheduled Caste Boys Hostel, Pithora"
672,Sakaiminato,JP,33.78,broken clouds,35.55,133.2333,Matsuya
673,Clifton,US,35.85,mist,40.8584,-74.1638,Quality Urban Housing
674,Half Moon Bay,US,68.45,clear sky,37.4636,-122.4286,"The Ritz-Carlton, Half Moon Bay"
675,Hastings,GB,41.9,broken clouds,50.8552,0.5729,Zanzibar Hotel
676,New Panay,PH,74.44,overcast clouds,6.7586,124.5892,Ara Rosa Swiming Pool
678,Mpulungu,ZM,69.01,overcast clouds,-8.7623,31.1141,Chela moche guest house
680,Carutapera,BR,76.21,overcast clouds,-1.195,-46.02,Lidera
683,Phu Ly,VN,55.67,overcast clouds,20.5411,105.9139,5 Star Apartment Central Phu Ly
684,Kokopo,PG,82.13,broken clouds,-4.352,152.2633,Kokopo Beach Bungalow Resort
685,Namuac,PH,73.13,overcast clouds,18.6109,121.1657,Mlin Hotel
686,Cedar Lake,US,22.77,overcast clouds,41.3648,-87.4411,Cedar Lake Ministries RV Park
687,Kuala Pilah,MY,74.35,overcast clouds,2.7389,102.2487,Orange Hotel Kuala Pilah
688,Port Macquarie,AU,67.96,overcast clouds,-31.4333,152.9167,Rydges Port Macquarie
689,Zhumadian,CN,29.46,clear sky,32.9794,114.0294,Ouyue House Hotel
690,Luoyang,CN,30.45,scattered clouds,34.6836,112.4536,易家国际青年旅舍
691,Effingham,US,68.18,overcast clouds,32.3669,-81.3332,Countryside Village
692,Phan Thiet,VN,71.33,overcast clouds,10.9333,108.1,Hotel Saigon-PT
694,Hobyo,SO,75.69,few clouds,5.3505,48.5268,Halane Hotel and Restaurent
695,Clonakilty,IE,39.09,clear sky,51.6231,-8.8706,Inchydoney Island Lodge & Spa
696,Bowen,AU,79.02,overcast clouds,-20.0167,148.2333,Castle Motor Lodge Motel
697,Pipri,IN,59.72,broken clouds,19.8,75.5333,Sukhana River nilu and rushi home
